{
  "mrts": [
    {
      "MrtRegionId": "1",
      "name": "taipei_mrt",
      "mrtline": [
        {
          "lat": "25.0416040",
          "lng": "121.5437750",
          "name": "文湖線",
          "sid": "100",
          "zoom": "13",
          "station": [
            {
              "sid": "101",
              "name": "南港展覽館",
              "lat": "25.0552650",
              "lng": "121.6173590",
              "zoom": "16",
              "nid": "4257"
            },
            {
              "sid": "102",
              "name": "南港軟體園",
              "lat": "25.0595760",
              "lng": "121.6159210",
              "zoom": "16",
              "nid": "4314"
            },
            {
              "sid": "103",
              "name": "東湖",
              "lat": "25.0671810",
              "lng": "121.6114790",
              "zoom": "16",
              "nid": "4315"
            },
            {
              "sid": "104",
              "name": "葫洲",
              "lat": "25.0727900",
              "lng": "121.6070030",
              "zoom": "16",
              "nid": "4316"
            },
            {
              "sid": "105",
              "name": "大湖公園",
              "lat": "25.0837440",
              "lng": "121.6023380",
              "zoom": "16",
              "nid": "4317"
            },
            {
              "sid": "106",
              "name": "內湖",
              "lat": "25.0837830",
              "lng": "121.5945520",
              "zoom": "16",
              "nid": "4318"
            },
            {
              "sid": "107",
              "name": "文德",
              "lat": "25.0785300",
              "lng": "121.5847270",
              "zoom": "16",
              "nid": "4319"
            },
            {
              "sid": "108",
              "name": "港墘",
              "lat": "25.0800440",
              "lng": "121.5751010",
              "zoom": "16",
              "nid": "4320"
            },
            {
              "sid": "109",
              "name": "西湖",
              "lat": "25.0821500",
              "lng": "121.5671430",
              "zoom": "16",
              "nid": "4321"
            },
            {
              "sid": "110",
              "name": "劍南路",
              "lat": "25.0848000",
              "lng": "121.5558750",
              "zoom": "16",
              "nid": "4282"
            },
            {
              "sid": "111",
              "name": "大直",
              "lat": "25.0794920",
              "lng": "121.5469110",
              "zoom": "16",
              "nid": "4323"
            },
            {
              "sid": "112",
              "name": "松山機場",
              "lat": "25.0629100",
              "lng": "121.5521900",
              "zoom": "16",
              "nid": "4324"
            },
            {
              "sid": "113",
              "name": "中山國中",
              "lat": "25.0608340",
              "lng": "121.5441830",
              "zoom": "16",
              "nid": "4185"
            },
            {
              "sid": "114",
              "name": "南京復興",
              "lat": "25.0525280",
              "lng": "121.5440670",
              "zoom": "16",
              "nid": "4186"
            },
            {
              "sid": "115",
              "name": "忠孝復興",
              "lat": "25.0416040",
              "lng": "121.5437750",
              "zoom": "16",
              "nid": "4187"
            },
            {
              "sid": "116",
              "name": "大安",
              "lat": "25.0329920",
              "lng": "121.5435820",
              "zoom": "16",
              "nid": "4188"
            },
            {
              "sid": "117",
              "name": "科技大樓",
              "lat": "25.0261190",
              "lng": "121.5434370",
              "zoom": "16",
              "nid": "4189"
            },
            {
              "sid": "118",
              "name": "六張犁",
              "lat": "25.0237870",
              "lng": "121.5531280",
              "zoom": "16",
              "nid": "4190"
            },
            {
              "sid": "119",
              "name": "麟光",
              "lat": "25.0185250",
              "lng": "121.5587720",
              "zoom": "16",
              "nid": "4191"
            },
            {
              "sid": "120",
              "name": "辛亥",
              "lat": "25.0054780",
              "lng": "121.5571030",
              "zoom": "16",
              "nid": "4192"
            },
            {
              "sid": "121",
              "name": "萬芳醫院",
              "lat": "24.9993490",
              "lng": "121.5580850",
              "zoom": "16",
              "nid": "4193"
            },
            {
              "sid": "122",
              "name": "萬芳社區",
              "lat": "24.9985620",
              "lng": "121.5680980",
              "zoom": "16",
              "nid": "4194"
            },
            {
              "sid": "123",
              "name": "木柵",
              "lat": "24.9982340",
              "lng": "121.5731460",
              "zoom": "16",
              "nid": "4195"
            },
            {
              "sid": "124",
              "name": "動物園",
              "lat": "24.9982650",
              "lng": "121.5794760",
              "zoom": "16",
              "nid": "4196"
            }
          ]
        },
        {
          "lat": "25.0716410",
          "lng": "121.5201180",
          "name": "淡水信義線",
          "sid": "125",
          "zoom": "13",
          "station": [
            {
              "sid": "125",
              "name": "新北投",
              "lat": "25.1369380",
              "lng": "121.5025330",
              "zoom": "16",
              "nid": "4198"
            },
            {
              "sid": "126",
              "name": "淡水",
              "lat": "25.1679890",
              "lng": "121.4455130",
              "zoom": "16",
              "nid": "4163"
            },
            {
              "sid": "127",
              "name": "紅樹林",
              "lat": "25.1548020",
              "lng": "121.4588300",
              "zoom": "16",
              "nid": "4164"
            },
            {
              "sid": "128",
              "name": "竹圍",
              "lat": "25.1373690",
              "lng": "121.4598230",
              "zoom": "16",
              "nid": "4165"
            },
            {
              "sid": "129",
              "name": "關渡",
              "lat": "25.1257790",
              "lng": "121.4671340",
              "zoom": "16",
              "nid": "4166"
            },
            {
              "sid": "130",
              "name": "忠義",
              "lat": "25.1315510",
              "lng": "121.4733840",
              "zoom": "16",
              "nid": "4167"
            },
            {
              "sid": "131",
              "name": "復興崗",
              "lat": "25.1379610",
              "lng": "121.4888120",
              "zoom": "16",
              "nid": "4168"
            },
            {
              "sid": "132",
              "name": "北投",
              "lat": "25.1318340",
              "lng": "121.4983650",
              "zoom": "16",
              "nid": "4169"
            },
            {
              "sid": "133",
              "name": "奇岩",
              "lat": "25.1252870",
              "lng": "121.5011280",
              "zoom": "16",
              "nid": "4170"
            },
            {
              "sid": "134",
              "name": "唭哩岸",
              "lat": "25.1208790",
              "lng": "121.5062460",
              "zoom": "16",
              "nid": "4171"
            },
            {
              "sid": "135",
              "name": "石牌",
              "lat": "25.1145210",
              "lng": "121.5155500",
              "zoom": "16",
              "nid": "4172"
            },
            {
              "sid": "136",
              "name": "明德",
              "lat": "25.1096560",
              "lng": "121.5189190",
              "zoom": "16",
              "nid": "4173"
            },
            {
              "sid": "137",
              "name": "芝山",
              "lat": "25.1030550",
              "lng": "121.5225110",
              "zoom": "16",
              "nid": "4174"
            },
            {
              "sid": "138",
              "name": "士林",
              "lat": "25.0935290",
              "lng": "121.5262170",
              "zoom": "16",
              "nid": "4175"
            },
            {
              "sid": "139",
              "name": "劍潭",
              "lat": "25.0843370",
              "lng": "121.5250210",
              "zoom": "16",
              "nid": "4176"
            },
            {
              "sid": "140",
              "name": "圓山",
              "lat": "25.0716410",
              "lng": "121.5201180",
              "zoom": "16",
              "nid": "4177"
            },
            {
              "sid": "141",
              "name": "民權西路",
              "lat": "25.0622190",
              "lng": "121.5196140",
              "zoom": "16",
              "nid": "4178"
            },
            {
              "sid": "142",
              "name": "雙連",
              "lat": "25.0577970",
              "lng": "121.5206650",
              "zoom": "16",
              "nid": "4179"
            },
            {
              "sid": "143",
              "name": "中山",
              "lat": "25.0526360",
              "lng": "121.5203700",
              "zoom": "16",
              "nid": "4180"
            },
            {
              "sid": "144",
              "name": "台北車站",
              "lat": "25.0462700",
              "lng": "121.5175050",
              "zoom": "16",
              "nid": "4181"
            },
            {
              "sid": "145",
              "name": "台大醫院",
              "lat": "25.0421970",
              "lng": "121.5163200",
              "zoom": "16",
              "nid": "4182"
            },
            {
              "sid": "146",
              "name": "中正紀念堂",
              "lat": "25.0339300",
              "lng": "121.5173820",
              "zoom": "16",
              "nid": "4183"
            },
            {
              "sid": "147",
              "name": "東門",
              "lat": "25.0338845",
              "lng": "121.5284819",
              "zoom": "16",
              "nid": "4200"
            },
            {
              "sid": "148",
              "name": "大安森林公園",
              "lat": "25.0335989",
              "lng": "121.5351496",
              "zoom": "16",
              "nid": "4201"
            },
            {
              "sid": "149",
              "name": "大安",
              "lat": "25.0329920",
              "lng": "121.5435820",
              "zoom": "16",
              "nid": "4188"
            },
            {
              "sid": "150",
              "name": "信義安和",
              "lat": "25.0332828",
              "lng": "121.5524300",
              "zoom": "16",
              "nid": "66300"
            },
            {
              "sid": "151",
              "name": "台北101/世貿",
              "lat": "25.0329368",
              "lng": "121.5628530",
              "zoom": "16",
              "nid": "66301"
            },
            {
              "sid": "152",
              "name": "象山",
              "lat": "25.0329122",
              "lng": "121.5693137",
              "zoom": "16",
              "nid": "4205"
            }
          ]
        },
        {
          "lat": "25.1369380",
          "lng": "121.5025330",
          "name": "新北投支線",
          "sid": "195",
          "zoom": "15",
          "station": [
            {
              "sid": "196",
              "name": "北投",
              "lat": "25.1318340",
              "lng": "121.4983650",
              "zoom": "16",
              "nid": "4169"
            },
            {
              "sid": "197",
              "name": "新北投",
              "lat": "25.1369380",
              "lng": "121.5025330",
              "zoom": "16",
              "nid": "4198"
            }
          ]
        },
        {
          "lat": "24.9925600",
          "lng": "121.5406310",
          "name": "松山新店線",
          "sid": "148",
          "zoom": "13",
          "station": [
            {
              "sid": "214",
              "name": "松山",
              "lat": "25.0501397",
              "lng": "121.5781343",
              "zoom": "16",
              "nid": "4235"
            },
            {
              "sid": "213",
              "name": "南京三民",
              "lat": "25.0515122",
              "lng": "121.5639883",
              "zoom": "16",
              "nid": "4236"
            },
            {
              "sid": "212",
              "name": "台北小巨蛋",
              "lat": "25.0517392",
              "lng": "121.5516207",
              "zoom": "16",
              "nid": "4237"
            },
            {
              "sid": "211",
              "name": "南京復興",
              "lat": "25.0525280",
              "lng": "121.5440670",
              "zoom": "16",
              "nid": "4186"
            },
            {
              "sid": "210",
              "name": "松江南京",
              "lat": "25.0520698",
              "lng": "121.5327819",
              "zoom": "16",
              "nid": "66266"
            },
            {
              "sid": "209",
              "name": "中山",
              "lat": "25.0526360",
              "lng": "121.5203700",
              "zoom": "16",
              "nid": "4180"
            },
            {
              "sid": "208",
              "name": "北門",
              "lat": "25.0501713",
              "lng": "121.5103855",
              "zoom": "16",
              "nid": "4241"
            },
            {
              "sid": "207",
              "name": "西門",
              "lat": "25.0422280",
              "lng": "121.5083110",
              "zoom": "16",
              "nid": "4242"
            },
            {
              "sid": "150",
              "name": "小南門",
              "lat": "25.0355920",
              "lng": "121.5107840",
              "zoom": "16",
              "nid": "4255"
            },
            {
              "sid": "146",
              "name": "中正紀念堂",
              "lat": "25.0339300",
              "lng": "121.5173820",
              "zoom": "16",
              "nid": "4183"
            },
            {
              "sid": "153",
              "name": "古亭",
              "lat": "25.0270570",
              "lng": "121.5223660",
              "zoom": "16",
              "nid": "4184"
            },
            {
              "sid": "154",
              "name": "台電大樓",
              "lat": "25.0204950",
              "lng": "121.5283310",
              "zoom": "16",
              "nid": "4244"
            },
            {
              "sid": "155",
              "name": "公館",
              "lat": "25.0147680",
              "lng": "121.5342910",
              "zoom": "16",
              "nid": "4245"
            },
            {
              "sid": "156",
              "name": "萬隆",
              "lat": "25.0019100",
              "lng": "121.5390330",
              "zoom": "16",
              "nid": "4246"
            },
            {
              "sid": "157",
              "name": "景美",
              "lat": "24.9925600",
              "lng": "121.5406310",
              "zoom": "16",
              "nid": "4247"
            },
            {
              "sid": "158",
              "name": "大坪林",
              "lat": "24.9830010",
              "lng": "121.5414040",
              "zoom": "16",
              "nid": "4248"
            },
            {
              "sid": "159",
              "name": "七張",
              "lat": "24.9750210",
              "lng": "121.5430670",
              "zoom": "16",
              "nid": "4249"
            },
            {
              "sid": "160",
              "name": "新店市公所",
              "lat": "24.9677900",
              "lng": "121.5414570",
              "zoom": "16",
              "nid": "4251"
            },
            {
              "sid": "161",
              "name": "新店",
              "lat": "24.9575190",
              "lng": "121.5375310",
              "zoom": "16",
              "nid": "4250"
            },
            {
              "sid": "194",
              "name": "小碧潭",
              "lat": "24.9718600",
              "lng": "121.5304100",
              "zoom": "16",
              "nid": "4253"
            }
          ]
        },
        {
          "lat": "24.9718600",
          "lng": "121.5304100",
          "name": "小碧潭支線",
          "sid": "192",
          "zoom": "15",
          "station": [
            {
              "sid": "194",
              "name": "小碧潭",
              "lat": "24.9718600",
              "lng": "121.5304100",
              "zoom": "16",
              "nid": "4253"
            },
            {
              "sid": "193",
              "name": "七張",
              "lat": "24.9750210",
              "lng": "121.5430670",
              "zoom": "16",
              "nid": "4249"
            }
          ]
        },
        {
          "lat": "25.0025860",
          "lng": "121.5109880",
          "name": "中和新蘆線",
          "sid": "162",
          "zoom": "14",
          "station": [
            {
              "sid": "237",
              "name": "蘆洲",
              "lat": "25.0917625",
              "lng": "121.4639818",
              "zoom": "16",
              "nid": "66258"
            },
            {
              "sid": "236",
              "name": "三民高中",
              "lat": "25.0854674",
              "lng": "121.4733363",
              "zoom": "16",
              "nid": "66259"
            },
            {
              "sid": "235",
              "name": "徐匯中學",
              "lat": "25.0807711",
              "lng": "121.4795041",
              "zoom": "16",
              "nid": "66260"
            },
            {
              "sid": "234",
              "name": "三和國中",
              "lat": "25.0768671",
              "lng": "121.4862494",
              "zoom": "16",
              "nid": "66261"
            },
            {
              "sid": "233",
              "name": "三重國小",
              "lat": "25.0702588",
              "lng": "121.4970673",
              "zoom": "16",
              "nid": "66262"
            },
            {
              "sid": "231",
              "name": "迴龍",
              "lat": "25.0223802",
              "lng": "121.4122956",
              "zoom": "16",
              "nid": "4207"
            },
            {
              "sid": "230",
              "name": "丹鳳",
              "lat": "25.0289433",
              "lng": "121.4220879",
              "zoom": "16",
              "nid": "4208"
            },
            {
              "sid": "229",
              "name": "輔大",
              "lat": "25.0328224",
              "lng": "121.4356373",
              "zoom": "16",
              "nid": "4209"
            },
            {
              "sid": "228",
              "name": "新莊",
              "lat": "25.0360967",
              "lng": "121.4517618",
              "zoom": "16",
              "nid": "4210"
            },
            {
              "sid": "227",
              "name": "頭前庄",
              "lat": "25.0397140",
              "lng": "121.4615264",
              "zoom": "16",
              "nid": "4211"
            },
            {
              "sid": "226",
              "name": "先嗇宮",
              "lat": "25.0465075",
              "lng": "121.4716406",
              "zoom": "16",
              "nid": "4212"
            },
            {
              "sid": "225",
              "name": "三重",
              "lat": "25.0558034",
              "lng": "121.4838470",
              "zoom": "16",
              "nid": "4213"
            },
            {
              "sid": "224",
              "name": "菜寮",
              "lat": "25.0596624",
              "lng": "121.4908597",
              "zoom": "16",
              "nid": "4214"
            },
            {
              "sid": "223",
              "name": "台北橋",
              "lat": "25.0633142",
              "lng": "121.5003498",
              "zoom": "16",
              "nid": "4215"
            },
            {
              "sid": "222",
              "name": "大橋頭",
              "lat": "25.0630558",
              "lng": "121.5125798",
              "zoom": "16",
              "nid": "4216"
            },
            {
              "sid": "221",
              "name": "民權西路",
              "lat": "25.0622190",
              "lng": "121.5196140",
              "zoom": "16",
              "nid": "4178"
            },
            {
              "sid": "220",
              "name": "中山國小",
              "lat": "25.0627367",
              "lng": "121.5263755",
              "zoom": "16",
              "nid": "66264"
            },
            {
              "sid": "219",
              "name": "行天宮",
              "lat": "25.0593408",
              "lng": "121.5331007",
              "zoom": "16",
              "nid": "66265"
            },
            {
              "sid": "218",
              "name": "松江南京",
              "lat": "25.0520698",
              "lng": "121.5327819",
              "zoom": "16",
              "nid": "66266"
            },
            {
              "sid": "217",
              "name": "忠孝新生",
              "lat": "25.0423570",
              "lng": "121.5329040",
              "zoom": "16",
              "nid": "4221"
            },
            {
              "sid": "216",
              "name": "東門",
              "lat": "25.0338845",
              "lng": "121.5284819",
              "zoom": "16",
              "nid": "4200"
            },
            {
              "sid": "163",
              "name": "古亭",
              "lat": "25.0270570",
              "lng": "121.5223660",
              "zoom": "16",
              "nid": "4184"
            },
            {
              "sid": "164",
              "name": "頂溪",
              "lat": "25.0135190",
              "lng": "121.5154290",
              "zoom": "16",
              "nid": "4231"
            },
            {
              "sid": "165",
              "name": "永安市場",
              "lat": "25.0025860",
              "lng": "121.5109880",
              "zoom": "16",
              "nid": "4232"
            },
            {
              "sid": "166",
              "name": "景安",
              "lat": "24.9939020",
              "lng": "121.5050870",
              "zoom": "16",
              "nid": "4233"
            },
            {
              "sid": "167",
              "name": "南勢角",
              "lat": "24.9897210",
              "lng": "121.5097700",
              "zoom": "16",
              "nid": "4234"
            }
          ]
        },
        {
          "lat": "25.0234110",
          "lng": "121.4681960",
          "name": "板南線",
          "sid": "168",
          "zoom": "14",
          "station": [
            {
              "sid": "101",
              "name": "南港展覽館",
              "lat": "25.0552650",
              "lng": "121.6173590",
              "zoom": "16",
              "nid": "4257"
            },
            {
              "sid": "180",
              "name": "南港",
              "lat": "25.0521400",
              "lng": "121.6070590",
              "zoom": "16",
              "nid": "4258"
            },
            {
              "sid": "179",
              "name": "昆陽",
              "lat": "25.0504120",
              "lng": "121.5932620",
              "zoom": "16",
              "nid": "4259"
            },
            {
              "sid": "178",
              "name": "後山埤",
              "lat": "25.0448650",
              "lng": "121.5823700",
              "zoom": "16",
              "nid": "4260"
            },
            {
              "sid": "177",
              "name": "永春",
              "lat": "25.0408770",
              "lng": "121.5755860",
              "zoom": "16",
              "nid": "4261"
            },
            {
              "sid": "176",
              "name": "市政府",
              "lat": "25.0411440",
              "lng": "121.5659710",
              "zoom": "16",
              "nid": "4262"
            },
            {
              "sid": "175",
              "name": "國父紀念館",
              "lat": "25.0413310",
              "lng": "121.5577420",
              "zoom": "16",
              "nid": "4263"
            },
            {
              "sid": "174",
              "name": "忠孝敦化",
              "lat": "25.0414990",
              "lng": "121.5505080",
              "zoom": "16",
              "nid": "4264"
            },
            {
              "sid": "173",
              "name": "忠孝復興",
              "lat": "25.0416040",
              "lng": "121.5437750",
              "zoom": "16",
              "nid": "4187"
            },
            {
              "sid": "172",
              "name": "忠孝新生",
              "lat": "25.0423570",
              "lng": "121.5329040",
              "zoom": "16",
              "nid": "4221"
            },
            {
              "sid": "171",
              "name": "善導寺",
              "lat": "25.0447580",
              "lng": "121.5236800",
              "zoom": "16",
              "nid": "4267"
            },
            {
              "sid": "170",
              "name": "台北車站",
              "lat": "25.0462700",
              "lng": "121.5175050",
              "zoom": "16",
              "nid": "4181"
            },
            {
              "sid": "169",
              "name": "西門",
              "lat": "25.0422280",
              "lng": "121.5083110",
              "zoom": "16",
              "nid": "4242"
            },
            {
              "sid": "186",
              "name": "龍山寺",
              "lat": "25.0352810",
              "lng": "121.4998350",
              "zoom": "16",
              "nid": "4271"
            },
            {
              "sid": "185",
              "name": "江子翠",
              "lat": "25.0304790",
              "lng": "121.4728090",
              "zoom": "16",
              "nid": "4272"
            },
            {
              "sid": "184",
              "name": "新埔",
              "lat": "25.0234110",
              "lng": "121.4681960",
              "zoom": "16",
              "nid": "4273"
            },
            {
              "sid": "183",
              "name": "板橋",
              "lat": "25.0138300",
              "lng": "121.4625250",
              "zoom": "16",
              "nid": "4274"
            },
            {
              "sid": "182",
              "name": "府中",
              "lat": "25.0085650",
              "lng": "121.4591780",
              "zoom": "16",
              "nid": "4275"
            },
            {
              "sid": "191",
              "name": "亞東醫院",
              "lat": "24.9984430",
              "lng": "121.4525580",
              "zoom": "16",
              "nid": "4277"
            },
            {
              "sid": "190",
              "name": "海山",
              "lat": "24.9853060",
              "lng": "121.4488190",
              "zoom": "16",
              "nid": "4278"
            },
            {
              "sid": "189",
              "name": "土城",
              "lat": "24.9731510",
              "lng": "121.4443400",
              "zoom": "16",
              "nid": "4279"
            },
            {
              "sid": "188",
              "name": "永寧",
              "lat": "24.9667980",
              "lng": "121.4363040",
              "zoom": "16",
              "nid": "4280"
            },
            {
              "sid": "192",
              "name": "頂埔",
              "lat": "24.9593915",
              "lng": "121.4194736",
              "zoom": "16",
              "nid": "4281"
            }
          ]
        },
        {
          "lat": "25.1548020",
          "lng": "121.4588300",
          "name": "綠山線",
          "sid": "316",
          "zoom": "14",
          "station": [
            {
              "sid": "279",
              "name": "紅樹林",
              "lat": "25.1548020",
              "lng": "121.4588300",
              "zoom": "16",
              "nid": "4164"
            },
            {
              "sid": "317",
              "name": "竿蓁林",
              "lat": "25.1597544",
              "lng": "121.4556931",
              "zoom": "16",
              "nid": "66346"
            },
            {
              "sid": "318",
              "name": "淡金鄧公",
              "lat": "25.1687402",
              "lng": "121.4592487",
              "zoom": "16",
              "nid": "66347"
            },
            {
              "sid": "319",
              "name": "淡江大學",
              "lat": "25.1749753",
              "lng": "121.4561137",
              "zoom": "16",
              "nid": "66348"
            },
            {
              "sid": "320",
              "name": "淡金北新",
              "lat": "25.1808191",
              "lng": "121.4502724",
              "zoom": "16",
              "nid": "66349"
            },
            {
              "sid": "321",
              "name": "新市一路",
              "lat": "25.1833358",
              "lng": "121.4452655",
              "zoom": "16",
              "nid": "66350"
            },
            {
              "sid": "322",
              "name": "淡水行政中心",
              "lat": "25.1887316",
              "lng": "121.4430910",
              "zoom": "16",
              "nid": "66351"
            },
            {
              "sid": "323",
              "name": "濱海義山",
              "lat": "25.1898678",
              "lng": "121.4352573",
              "zoom": "16",
              "nid": "66352"
            },
            {
              "sid": "324",
              "name": "濱海沙崙",
              "lat": "25.1905979",
              "lng": "121.4290000",
              "zoom": "16",
              "nid": "66353"
            },
            {
              "sid": "325",
              "name": "淡海新市鎮",
              "lat": "25.1906219",
              "lng": "121.4224339",
              "zoom": "16",
              "nid": "66354"
            },
            {
              "sid": "326",
              "name": "崁頂",
              "lat": "25.1990378",
              "lng": "121.4317023",
              "zoom": "16",
              "nid": "66355"
            }
          ]
        }
      ]
    },
    {
      "name": "kaohsiung",
      "MrtRegionId": "17",
      "mrtline": [
        {
          "lat": "22.6313980",
          "lng": "120.3019600",
          "name": "紅線",
          "sid": "238",
          "zoom": "14",
          "station": [
            {
              "sid": "239",
              "name": "小港",
              "lat": "22.5648200",
              "lng": "120.3538340",
              "zoom": "16",
              "nid": "4329"
            },
            {
              "sid": "240",
              "name": "高雄國際機場",
              "lat": "22.5701260",
              "lng": "120.3421350",
              "zoom": "16",
              "nid": "4330"
            },
            {
              "sid": "241",
              "name": "草衙",
              "lat": "22.5803690",
              "lng": "120.3284450",
              "zoom": "16",
              "nid": "4331"
            },
            {
              "sid": "242",
              "name": "前鎮高中",
              "lat": "22.5883240",
              "lng": "120.3217660",
              "zoom": "16",
              "nid": "4332"
            },
            {
              "sid": "243",
              "name": "凱旋",
              "lat": "22.5968430",
              "lng": "120.3151410",
              "zoom": "16",
              "nid": "4333"
            },
            {
              "sid": "244",
              "name": "獅甲",
              "lat": "22.6058810",
              "lng": "120.3081990",
              "zoom": "16",
              "nid": "4334"
            },
            {
              "sid": "245",
              "name": "三多商圈",
              "lat": "22.6138490",
              "lng": "120.3046160",
              "zoom": "16",
              "nid": "4335"
            },
            {
              "sid": "246",
              "name": "中央公園",
              "lat": "22.6246290",
              "lng": "120.3011930",
              "zoom": "16",
              "nid": "4336"
            },
            {
              "sid": "247",
              "name": "美麗島",
              "lat": "22.6313980",
              "lng": "120.3019600",
              "zoom": "16",
              "nid": "4337"
            },
            {
              "sid": "248",
              "name": "高雄車站",
              "lat": "22.6396760",
              "lng": "120.3026690",
              "zoom": "16",
              "nid": "4338"
            },
            {
              "sid": "249",
              "name": "後驛",
              "lat": "22.6483200",
              "lng": "120.3033440",
              "zoom": "16",
              "nid": "4339"
            },
            {
              "sid": "250",
              "name": "凹子底",
              "lat": "22.6572310",
              "lng": "120.3030650",
              "zoom": "16",
              "nid": "4340"
            },
            {
              "sid": "251",
              "name": "巨蛋",
              "lat": "22.6662560",
              "lng": "120.3033550",
              "zoom": "16",
              "nid": "4341"
            },
            {
              "sid": "252",
              "name": "生態園區",
              "lat": "22.6768340",
              "lng": "120.3066760",
              "zoom": "16",
              "nid": "4342"
            },
            {
              "sid": "253",
              "name": "左營",
              "lat": "22.6880250",
              "lng": "120.3091760",
              "zoom": "16",
              "nid": "4343"
            },
            {
              "sid": "254",
              "name": "世運",
              "lat": "22.7016150",
              "lng": "120.3025130",
              "zoom": "16",
              "nid": "4344"
            },
            {
              "sid": "255",
              "name": "油廠國小",
              "lat": "22.7086170",
              "lng": "120.3023090",
              "zoom": "16",
              "nid": "4345"
            },
            {
              "sid": "256",
              "name": "楠梓加工區",
              "lat": "22.7187010",
              "lng": "120.3071990",
              "zoom": "16",
              "nid": "4346"
            },
            {
              "sid": "257",
              "name": "後勁",
              "lat": "22.7223490",
              "lng": "120.3163320",
              "zoom": "16",
              "nid": "4347"
            },
            {
              "sid": "258",
              "name": "都會公園",
              "lat": "22.7293400",
              "lng": "120.3209930",
              "zoom": "16",
              "nid": "4348"
            },
            {
              "sid": "259",
              "name": "青埔",
              "lat": "22.7446730",
              "lng": "120.3177050",
              "zoom": "16",
              "nid": "4349"
            },
            {
              "sid": "260",
              "name": "橋頭糖廠",
              "lat": "22.7534640",
              "lng": "120.3144920",
              "zoom": "16",
              "nid": "4350"
            },
            {
              "sid": "261",
              "name": "橋頭火車",
              "lat": "22.7604340",
              "lng": "120.3108920",
              "zoom": "16",
              "nid": "4351"
            },
            {
              "sid": "262",
              "name": "南岡山",
              "lat": "22.7806300",
              "lng": "120.3017400",
              "zoom": "16",
              "nid": "4352"
            }
          ]
        },
        {
          "lat": "22.6313981",
          "lng": "120.3019601",
          "name": "橘線",
          "sid": "263",
          "zoom": "14",
          "station": [
            {
              "sid": "264",
              "name": "西子灣",
              "lat": "22.6215440",
              "lng": "120.2745430",
              "zoom": "16",
              "nid": "4353"
            },
            {
              "sid": "265",
              "name": "鹽埕埔",
              "lat": "22.6235100",
              "lng": "120.2837500",
              "zoom": "16",
              "nid": "4354"
            },
            {
              "sid": "266",
              "name": "市議會",
              "lat": "22.6290260",
              "lng": "120.2948900",
              "zoom": "16",
              "nid": "4355"
            },
            {
              "sid": "267",
              "name": "美麗島",
              "lat": "22.6313980",
              "lng": "120.3019600",
              "zoom": "16",
              "nid": "4337"
            },
            {
              "sid": "268",
              "name": "信義國小",
              "lat": "22.6307540",
              "lng": "120.3116320",
              "zoom": "16",
              "nid": "4357"
            },
            {
              "sid": "269",
              "name": "文化中心",
              "lat": "22.6302940",
              "lng": "120.3175920",
              "zoom": "16",
              "nid": "4358"
            },
            {
              "sid": "270",
              "name": "五塊厝",
              "lat": "22.6295570",
              "lng": "120.3276890",
              "zoom": "16",
              "nid": "4359"
            },
            {
              "sid": "271",
              "name": "技擊館",
              "lat": "22.6273280",
              "lng": "120.3343240",
              "zoom": "16",
              "nid": "4360"
            },
            {
              "sid": "272",
              "name": "衛武營",
              "lat": "22.6251290",
              "lng": "120.3410560",
              "zoom": "16",
              "nid": "4361"
            },
            {
              "sid": "273",
              "name": "鳳山西",
              "lat": "22.6253470",
              "lng": "120.3480460",
              "zoom": "16",
              "nid": "4362"
            },
            {
              "sid": "274",
              "name": "鳳山",
              "lat": "22.6259510",
              "lng": "120.3553740",
              "zoom": "16",
              "nid": "4363"
            },
            {
              "sid": "275",
              "name": "大東",
              "lat": "22.6253440",
              "lng": "120.3633910",
              "zoom": "16",
              "nid": "4364"
            },
            {
              "sid": "276",
              "name": "鳳山國中",
              "lat": "22.6249060",
              "lng": "120.3724760",
              "zoom": "16",
              "nid": "4365"
            },
            {
              "sid": "277",
              "name": "大寮",
              "lat": "22.6223800",
              "lng": "120.3902800",
              "zoom": "16",
              "nid": "4366"
            }
          ]
        },
        {
          "lat": "22.6146773",
          "lng": "120.3317354",
          "name": "環狀輕軌",
          "sid": "307",
          "zoom": "14",
          "station": [
            {
              "sid": "308",
              "name": "籬仔內",
              "lat": "22.6146773",
              "lng": "120.3317354",
              "zoom": "16",
              "nid": "66338"
            },
            {
              "sid": "309",
              "name": "凱旋瑞田",
              "lat": "22.5996369",
              "lng": "120.3177573",
              "zoom": "16",
              "nid": "66339"
            },
            {
              "sid": "310",
              "name": "前鎮之星",
              "lat": "22.5954827",
              "lng": "120.3131446",
              "zoom": "16",
              "nid": "66340"
            },
            {
              "sid": "311",
              "name": "凱旋中華",
              "lat": "22.5934512",
              "lng": "120.3085784",
              "zoom": "16",
              "nid": "66341"
            },
            {
              "sid": "312",
              "name": "夢時代",
              "lat": "22.5950612",
              "lng": "120.3045194",
              "zoom": "16",
              "nid": "66342"
            },
            {
              "sid": "313",
              "name": "經貿園區",
              "lat": "22.6009640",
              "lng": "120.3005152",
              "zoom": "16",
              "nid": "66343"
            },
            {
              "sid": "314",
              "name": "軟體園區",
              "lat": "22.6054704",
              "lng": "120.2987263",
              "zoom": "16",
              "nid": "66344"
            },
            {
              "sid": "315",
              "name": "高雄展覽館",
              "lat": "22.6076685",
              "lng": "120.2972123",
              "zoom": "16",
              "nid": "66345"
            }
          ]
        }
      ]
    },
    {
      "name": "taoyuan_mrt",
      "MrtRegionId": "6",
      "mrtline": [
        {
          "lat": "25.0402868",
          "lng": "121.3852263",
          "name": "機場線",
          "sid": "278",
          "zoom": "12",
          "station": [
            {
              "sid": "279",
              "name": "台北車站",
              "lat": "25.0462700",
              "lng": "121.5175050",
              "zoom": "16",
              "nid": "66313"
            },
            {
              "sid": "280",
              "name": "三重",
              "lat": "25.0553974",
              "lng": "121.4824238",
              "zoom": "16",
              "nid": "66316"
            },
            {
              "sid": "281",
              "name": "新北產業園區",
              "lat": "25.0610671",
              "lng": "121.4596494",
              "zoom": "16",
              "nid": "66317"
            },
            {
              "sid": "282",
              "name": "新莊副都心",
              "lat": "25.0595239",
              "lng": "121.4465962",
              "zoom": "16",
              "nid": "66318"
            },
            {
              "sid": "283",
              "name": "泰山",
              "lat": "25.0522850",
              "lng": "121.4386015",
              "zoom": "16",
              "nid": "66319"
            },
            {
              "sid": "284",
              "name": "泰山貴和",
              "lat": "25.0329510",
              "lng": "121.4221587",
              "zoom": "16",
              "nid": "66320"
            },
            {
              "sid": "285",
              "name": "體育大學",
              "lat": "25.0402868",
              "lng": "121.3852263",
              "zoom": "16",
              "nid": "66321"
            },
            {
              "sid": "286",
              "name": "長庚醫院",
              "lat": "25.0611263",
              "lng": "121.3700473",
              "zoom": "16",
              "nid": "66335"
            },
            {
              "sid": "287",
              "name": "林口",
              "lat": "25.0679191",
              "lng": "121.3612459",
              "zoom": "16",
              "nid": "66322"
            },
            {
              "sid": "288",
              "name": "山鼻",
              "lat": "25.0852469",
              "lng": "121.2861713",
              "zoom": "16",
              "nid": "66323"
            },
            {
              "sid": "289",
              "name": "坑口",
              "lat": "25.0922943",
              "lng": "121.2687982",
              "zoom": "16",
              "nid": "66324"
            },
            {
              "sid": "290",
              "name": "機場第一航廈",
              "lat": "25.0864668",
              "lng": "121.2451907",
              "zoom": "16",
              "nid": "66325"
            },
            {
              "sid": "291",
              "name": "機場第二航廈",
              "lat": "25.0759422",
              "lng": "121.2325605",
              "zoom": "16",
              "nid": "66326"
            },
            {
              "sid": "297",
              "name": "機場旅館",
              "lat": "25.068650",
              "lng": "121.220792",
              "zoom": "16",
              "nid": "66327"
            },
            {
              "sid": "298",
              "name": "大園",
              "lat": "25.060709",
              "lng": "121.210453",
              "zoom": "16",
              "nid": "66328"
            },
            {
              "sid": "299",
              "name": "橫山",
              "lat": "25.038026",
              "lng": "121.215743",
              "zoom": "16",
              "nid": "66329"
            },
            {
              "sid": "300",
              "name": "領航",
              "lat": "25.024524",
              "lng": "121.220593",
              "zoom": "16",
              "nid": "66330"
            },
            {
              "sid": "301",
              "name": "高鐵桃園站",
              "lat": "25.013330",
              "lng": "121.214872",
              "zoom": "16",
              "nid": "66331"
            },
            {
              "sid": "302",
              "name": "桃園體育園區",
              "lat": "25.001481",
              "lng": "121.203158",
              "zoom": "16",
              "nid": "66332"
            },
            {
              "sid": "303",
              "name": "興南",
              "lat": "24.980225",
              "lng": "121.216161",
              "zoom": "16",
              "nid": "66333"
            },
            {
              "sid": "304",
              "name": "環北",
              "lat": "24.967058",
              "lng": "121.221042",
              "zoom": "16",
              "nid": "66334"
            }
          ]
        }
      ]
    }
  ]
}